{"type": "FeatureCollection",
"center":[105.9961,37.3096],

"features":
[
{"type": "Feature","properties": {"name":"吴忠市"},"geometry": {"type": "Point","coordinates": [106.853,37.3755]}},
{"type": "Feature","properties": {"name":"中卫市"},"geometry": {"type": "Point","coordinates": [105.4028,36.9525]}},
{"type": "Feature","properties": {"name":"固原市"},"geometry": {"type": "Point","coordinates": [106.1389,35.9363]}},
{"type": "Feature","properties": {"name":"银川市"},"geometry": {"type": "Point","coordinates": [106.3586,38.1775]}},
{"type": "Feature","properties": {"name":"石嘴山市"},"geometry": {"type": "Point","coordinates": [106.4795,39.0015]}}
]
}